City,Latitude,Longitude,Temperature,Humidity,Cloudiness,Wind Speed,Country,Date
Cap Malheureux,-19.9842,57.6142,25.82,69,8,0.89,MU,1621919018
Muncar,-8.4333,114.3333,29.25,68,79,2.53,ID,1621919018
Hobart,-42.8794,147.3294,17.61,60,75,1.79,AU,1621918800
Busselton,-33.65,115.3333,16.69,52,99,0.97,AU,1621919019
Mbala,-8.8402,31.3659,11.64,88,15,4.12,ZM,1621918831
Nikolskoye,59.7035,30.7861,10.03,75,92,1.64,RU,1621919019
Thompson,55.7435,-97.8558,8.06,96,100,5.78,CA,1621918817
Claresholm,50.0333,-113.5852,6.71,88,100,5.38,CA,1621918817
Nyurba,63.2842,118.3319,7.56,80,100,3.04,RU,1621919020
Punta Arenas,-53.15,-70.9167,0.06,75,75,10.54,CL,1621919007
Rikitea,-23.1203,-134.9692,23.67,86,100,3.8,PF,1621918726
Fort Nelson,58.8053,-122.7002,10.49,42,100,2.59,CA,1621918817
Saint George,37.1041,-113.5841,21.57,19,1,4.12,US,1621919021
Gander,48.9682,-54.5906,0.09,75,46,5.81,CA,1621919022
Huarmey,-10.0681,-78.1522,18.49,87,24,2.65,PE,1621919022
Carnarvon,-24.8667,113.6333,20.77,35,0,6.79,AU,1621919023
Mehamn,71.0357,27.8492,2.95,62,50,2.26,NO,1621918989
Kavieng,-2.5744,150.7967,27.52,81,100,3.19,PG,1621919024
Chokurdakh,70.6333,147.9167,2.64,99,99,2.89,RU,1621919024
Vao,-22.6667,167.4833,21.98,64,12,9.41,NC,1621919024
Buin,-33.7333,-70.75,7.44,49,0,2.18,CL,1621919025
Yar-Sale,66.8333,70.8333,3.88,44,47,2.36,RU,1621919026
Nantucket,41.2835,-70.0995,9.96,71,1,5.66,US,1621918967
Mataura,-46.1927,168.8643,3.74,84,1,0.97,NZ,1621919026
Kavaratti,10.5669,72.642,28.81,74,100,6.72,IN,1621919027
Port Augusta,-32.5,137.7667,17.62,30,8,10.2,AU,1621919027
Makīnsk,52.6292,70.4169,30.74,22,24,4.59,KZ,1621919029
Barrow,71.2906,-156.7887,-2.99,80,90,1.54,US,1621919029
Bambous Virieux,-20.3428,57.7575,25.68,68,55,4.67,MU,1621919029
Fortuna,40.5982,-124.1573,14.44,62,90,1.54,US,1621919030
Santiago del Estero,-27.7951,-64.2615,12.39,49,11,4.15,AR,1621918866
Vaini,-21.2,-175.2,23.09,83,75,2.57,TO,1621919031
Arraial do Cabo,-22.9661,-42.0278,21.02,66,99,8.67,BR,1621918731
Upernavik,72.7868,-56.1549,-3.7,73,69,2.09,GL,1621919031
Makakilo City,21.3469,-158.0858,25.74,69,90,3.6,US,1621919032
Klaksvík,62.2266,-6.589,7.51,93,99,7.46,FO,1621919032
Pangkalanbuun,-2.6833,111.6167,34.51,46,53,1.62,ID,1621919033
Labuhan,-6.8844,112.2051,30.84,63,28,3.29,ID,1621919034
Laramie,41.3114,-105.5911,7.08,50,1,6.17,US,1621919034
Tazovsky,67.4667,78.7,-0.44,69,10,4.83,RU,1621919034
Hilo,19.7297,-155.09,23.78,93,11,1.79,US,1621918741
Takoradze,4.8845,-1.7554,26.6,87,88,3.69,GH,1621919035
Pacora,9.0833,-79.2833,26.72,93,100,1.68,PA,1621919036
Te Anau,-45.4167,167.7167,5.82,70,1,0.53,NZ,1621918880
Tuktoyaktuk,69.4541,-133.0374,0.59,83,18,3.91,CA,1621919037
Mortka,59.3322,66.0214,20.28,56,87,3.48,RU,1621919037
Mar del Plata,-38.0023,-57.5575,12.56,23,5,2.68,AR,1621919026
Bilibino,68.0546,166.4372,5.04,81,100,1.19,RU,1621919038
Constitución,-35.3333,-72.4167,12.05,84,6,2.96,CL,1621919039
São Filipe,14.8961,-24.4956,22.13,80,3,4.69,CV,1621919039
Jamestown,42.097,-79.2353,18.1,90,90,1.79,US,1621919040
Norman Wells,65.282,-126.8329,10.0,40,94,3.01,CA,1621919040
Goundam,16.4145,-3.6708,31.17,34,65,2.06,ML,1621919041
Pemangkat,1.1667,108.9667,30.33,64,25,3.28,ID,1621919041
Waddān,29.1614,16.139,28.64,10,29,2.79,LY,1621919042
Troitsko-Pechorsk,62.7084,56.1964,14.06,63,31,4.39,RU,1621919042
Road Town,18.4167,-64.6167,26.46,76,3,6.46,VG,1621919043
Ushuaia,-54.8,-68.3,-2.92,83,99,5.15,AR,1621918804
Seoul,37.5683,126.9778,17.47,49,40,7.18,KR,1621918616
Port-Gentil,-0.7193,8.7815,26.75,85,98,5.83,GA,1621918962
Cabo San Lucas,22.8909,-109.9124,24.22,57,1,4.33,MX,1621919016
Cape Town,-33.9258,18.4232,14.77,93,99,2.15,ZA,1621918983
Poum,-20.2333,164.0167,23.52,62,48,9.44,NC,1621919044
Waingapu,-9.6567,120.2641,29.39,61,31,5.17,ID,1621919045
Lompoc,34.6391,-120.4579,13.99,86,39,3.07,US,1621918765
Severo-Kuril'sk,50.6789,156.125,5.54,73,100,6.26,RU,1621919046
Bluff,-46.6,168.3333,6.66,65,4,1.02,NZ,1621919046
Port Macquarie,-31.4333,152.9167,20.26,59,43,3.68,AU,1621919047
Katy,29.7858,-95.8244,23.58,91,1,0.45,US,1621918886
Longyearbyen,78.2186,15.6401,-3.09,68,75,5.66,SJ,1621919047
Clyde River,70.4692,-68.5914,-4.28,91,100,12.4,CA,1621919048
Albany,42.6001,-73.9662,12.16,74,77,2.23,US,1621918919
Bahār,34.9072,48.4414,22.3,29,97,5.05,IR,1621919049
Caxito,-8.5785,13.6643,26.36,98,65,1.82,AO,1621919049
Okato,-39.2,173.8833,12.4,58,21,2.68,NZ,1621919050
Geraldton,-28.7667,114.6,19.23,45,0,4.81,AU,1621919050
Chapais,49.7834,-74.8492,8.75,60,86,3.78,CA,1621919051
Bredasdorp,-34.5322,20.0403,12.38,76,94,1.43,ZA,1621919051
Tasiilaq,65.6145,-37.6368,1.09,95,100,18.88,GL,1621919052
Aklavik,68.2191,-135.0107,7.31,66,28,6.31,CA,1621919052
Saint-Philippe,-21.3585,55.7679,23.62,76,18,4.23,RE,1621919053
Lorengau,-2.0226,147.2712,27.39,86,99,5.55,PG,1621919053
Avarua,-21.2078,-159.775,27.03,89,20,3.09,CK,1621919054
Cherskiy,68.75,161.3,11.74,46,100,4.56,RU,1621919054
Matagami,49.7502,-77.6328,15.06,59,90,4.07,CA,1621919055
Vyritsa,59.4078,30.3481,9.73,75,47,1.21,RU,1621919055
Ancud,-41.8697,-73.8203,7.53,74,87,2.05,CL,1621919056
Hong Kong,22.2855,114.1577,28.97,84,18,0.45,HK,1621918864
Ketchikan,55.3422,-131.6461,12.26,66,40,2.06,US,1621919056
Portland,45.5234,-122.6762,12.97,88,100,0.45,US,1621918814
Elizabeth City,36.2946,-76.2511,17.57,82,90,4.12,US,1621919057
Lebu,-37.6167,-73.65,11.75,90,66,1.14,CL,1621919057
Kaeo,-35.1,173.7833,14.07,77,81,7.62,NZ,1621919058
Paciran,-6.8767,112.3761,30.77,64,23,3.4,ID,1621919058
Castro,-24.7911,-50.0119,6.3,73,92,0.64,BR,1621919060
Pisco,-13.7,-76.2167,17.03,88,40,2.06,PE,1621919060
Dudinka,69.4058,86.1778,-1.71,82,75,7.79,RU,1621919061
Lagoa,39.05,-27.9833,16.68,75,100,4.88,PT,1621919061
Samarai,-10.6167,150.6667,26.98,65,87,8.04,PG,1621919061
Cidreira,-30.1811,-50.2056,11.84,80,0,5.71,BR,1621919062
Los Alamos,35.8881,-106.307,14.24,12,1,0.45,US,1621919062
Los Llanos de Aridane,28.6585,-17.9182,16.18,76,75,8.3,ES,1621919063
Yellowknife,62.456,-114.3525,-2.04,54,0,1.79,CA,1621918817
Dikson,73.5069,80.5464,-1.89,74,11,4.83,RU,1621919063
Hermanus,-34.4187,19.2345,12.67,78,97,2.28,ZA,1621919064
San Cristobal,7.7669,-72.225,18.89,92,93,1.28,VE,1621918845
Kapaa,22.0752,-159.319,25.12,73,40,1.21,US,1621919065
San Patricio,28.017,-97.5169,25.51,90,8,6.01,US,1621919065
New Norfolk,-42.7826,147.0587,17.47,55,100,4.55,AU,1621919066
Paamiut,61.994,-49.6678,-0.64,94,100,12.81,GL,1621919066
Horadiz,39.4488,47.3353,24.17,46,92,3.53,AZ,1621919066
Ribeira Grande,38.5167,-28.7,17.66,83,100,10.08,PT,1621919067
Betlitsa,54.0095,33.9588,12.25,75,28,0.72,RU,1621919068
Iqaluit,63.7506,-68.5145,-11.24,83,27,4.25,CA,1621918815
Atuona,-9.8,-139.0333,26.82,73,1,8.27,PF,1621918964
Dakar,14.6937,-17.4441,21.0,88,40,4.12,SN,1621918812
Saint Anthony,45.0205,-93.218,21.07,90,75,4.07,US,1621919070
Qaanaaq,77.484,-69.3632,-4.08,64,3,3.38,GL,1621919070
Necochea,-38.5473,-58.7368,13.3,59,5,8.33,AR,1621919071
Antalaha,-14.9003,50.2788,23.3,70,6,2.87,MG,1621919071
Guerrero Negro,27.9769,-114.0611,16.46,84,40,4.73,MX,1621919072
Flin Flon,54.7682,-101.865,10.1,99,100,2.47,CA,1621919072
Adrar,20.5022,-10.0711,27.84,20,50,4.31,MR,1621918853
Ambulu,-8.345,113.6058,29.12,67,90,2.32,ID,1621919073
Khatanga,71.9667,102.5,0.2,100,100,4.84,RU,1621919073
Mahébourg,-20.4081,57.7,25.7,68,52,4.64,MU,1621919073
Khorixas,-20.3667,14.9667,16.21,42,0,6.08,NA,1621919074
Nishihara,26.1842,127.7558,24.61,77,75,3.33,JP,1621919075
Katsuura,35.1333,140.3,28.46,69,67,4.32,JP,1621919075
Malé,4.1748,73.5089,29.04,74,100,10.09,MV,1621919033
Kumul,42.8,93.45,29.05,10,0,2.38,CN,1621919076
Touros,-5.1989,-35.4608,22.5,79,100,5.02,BR,1621919076
Zhigansk,66.7697,123.3711,11.98,27,100,3.61,RU,1621919077
Russell,32.3502,-85.1999,20.74,65,92,1.34,US,1621918831
Onalaska,43.8844,-91.2351,22.69,93,92,4.7,US,1621918826
Novo Aripuanã,-5.1206,-60.3797,24.47,83,39,0.73,BR,1621919078
Airai,-8.9266,125.4092,20.6,72,69,1.67,TL,1621919079
Port Hardy,50.6996,-127.4199,9.57,85,85,3.14,CA,1621919079
Severodvinsk,64.5635,39.8302,5.06,98,100,5.34,RU,1621919080
Cootamundra,-34.65,148.0333,19.97,52,51,6.83,AU,1621919080
Laas,46.6166,10.7002,7.5,99,100,0.87,IT,1621919081
Richards Bay,-28.783,32.0377,16.05,86,13,4.35,ZA,1621919081
Batagay,67.6333,134.6333,17.64,17,40,3.04,RU,1621918798
Verkhnyaya Inta,65.9811,60.3094,5.51,79,100,4.7,RU,1621919082
Provideniya,64.3833,-173.3,6.06,61,0,8.0,RU,1621919082
La Ronge,55.1001,-105.2842,8.38,98,100,5.99,CA,1621919083
Bonavista,48.6499,-53.1147,1.18,69,27,9.14,CA,1621919083
Ust-Tsilma,65.441,52.1498,2.37,97,100,2.38,RU,1621919083
Kasongo-Lunda,-6.4667,16.8167,18.38,73,19,1.39,CD,1621918932
Talnakh,69.4865,88.3972,-1.7,85,100,8.63,RU,1621919084
Narrabri,-30.3167,149.7833,21.96,45,0,0.45,AU,1621919085
Tabuk,17.4189,121.4443,34.85,43,7,2.62,PH,1621919085
Souillac,-20.5167,57.5167,25.76,71,48,4.36,MU,1621919085
Luang Prabang,19.8856,102.1347,34.41,48,100,0.49,LA,1621919086
Puerto Ayora,-0.7393,-90.3518,23.64,91,57,1.79,EC,1621919086
Oodweyne,9.4092,45.064,23.3,56,1,8.41,SO,1621919087
Faanui,-16.4833,-151.75,27.29,74,100,3.09,PF,1621919087
Beachwood,41.4645,-81.5087,18.72,91,1,0.45,US,1621919088
Mount Gambier,-37.8333,140.7667,12.95,88,75,7.72,AU,1621919088
Östersund,63.1792,14.6357,8.25,87,0,2.57,SE,1621919089
Nanortalik,60.1432,-45.2371,1.23,99,100,7.78,GL,1621919089
Hervey Bay,-25.2986,152.8535,23.34,65,26,1.79,AU,1621919035
Poya,-21.35,165.15,22.3,56,59,4.61,NC,1621919090
George Town,5.4112,100.3354,31.96,68,20,3.03,MY,1621919090
Kédougou,12.5579,-12.1743,30.09,38,77,1.45,SN,1621919091
Butaritari,3.0707,172.7902,25.42,84,100,3.22,KI,1621919091
Lata,40.1629,-8.3327,7.23,94,1,1.87,PT,1621919092
Netanya,32.3329,34.8599,22.48,61,1,1.84,IL,1621919092
Aden,12.7794,45.0367,30.23,69,28,2.15,YE,1621919093
Port Alfred,-33.5906,26.891,18.18,64,99,3.31,ZA,1621919093
Hithadhoo,-0.6,73.0833,29.12,70,100,7.75,MV,1621919094
Codrington,-38.2667,141.9667,14.35,80,98,7.89,AU,1621919094
Kamaishi,39.2667,141.8833,21.26,44,96,4.7,JP,1621919095
Tadine,-21.55,167.8833,22.73,61,33,7.62,NC,1621919095
Barcelos,41.5388,-8.6151,9.81,88,2,2.53,PT,1621919095
Bathsheba,13.2167,-59.5167,25.82,75,55,7.17,BB,1621918866
Isiro,2.7739,27.616,19.66,84,79,0.45,CD,1621919096
Niesky,51.2924,14.8211,11.83,87,100,3.93,DE,1621919097
Pacific Grove,36.6177,-121.9166,12.13,87,15,1.34,US,1621918866
Deputatsky,69.3,139.9,9.75,44,94,4.7,RU,1621919097
Avera,33.194,-82.5271,22.33,50,96,2.72,US,1621919056
Zhangaözen,43.3,52.8,31.7,13,2,4.56,KZ,1621919098
Kirakira,-10.4544,161.9205,26.86,80,79,4.86,SB,1621919099
Hue,16.4667,107.6,32.06,64,40,4.79,VN,1621919099
Verkhniachka,48.8285,30.0396,12.99,76,93,3.17,UA,1621919100
Ilulissat,69.2167,-51.1,7.01,31,75,8.23,GL,1621919100
Henties Bay,-22.116,14.2845,17.7,55,11,0.65,NA,1621919101
Lincoln,40.8,-96.667,20.52,86,90,2.68,US,1621918923
Piaçabuçu,-10.4056,-36.4344,23.29,80,66,2.69,BR,1621919101
Pevek,69.7008,170.3133,0.83,90,100,1.6,RU,1621919102
Gwadar,25.1216,62.3254,30.08,73,22,4.06,PK,1621919102
Ţahţā,26.7693,31.5021,25.29,26,0,4.14,EG,1621919103
Kondinskoye,59.6481,67.41,20.48,58,71,5.04,RU,1621919103
Saskylakh,71.9167,114.0833,12.06,59,50,4.97,RU,1621919104
Jacupiranga,-24.6925,-48.0022,10.43,82,49,0.97,BR,1621919104
Boquira,-12.8231,-42.7306,20.34,56,70,1.12,BR,1621919105
Kalmunai,7.4167,81.8167,30.17,62,98,3.08,LK,1621919105
Tautira,-17.7333,-149.15,26.01,76,82,2.34,PF,1621918819
Phang Nga,8.4509,98.5298,30.02,95,100,2.74,TH,1621919106
Ingham,42.6,-84.3833,20.38,88,1,4.12,US,1621919106
Nome,64.5011,-165.4064,18.03,32,1,6.69,US,1621919107
Ulety,51.3572,112.4849,11.84,35,99,3.68,RU,1621919107
Husavik,66.0449,-17.3389,3.25,80,19,3.09,IS,1621919108
Charters Towers,-20.1,146.2667,25.44,45,14,6.56,AU,1621919108
Wau,7.7029,27.9953,23.62,81,54,2.44,SS,1621919109
Sitrah,26.1547,50.6206,35.0,56,0,1.45,BH,1621919109
Caravelas,-17.7125,-39.2481,22.76,90,100,1.27,BR,1621919110
Canoa,18.355,-71.1585,24.97,84,17,0.39,DO,1621919110
East London,-33.0153,27.9116,21.51,66,100,2.99,ZA,1621919111
The Valley,18.217,-63.0578,26.66,75,25,8.34,AI,1621919111
Torbay,47.6666,-52.7314,-0.79,83,4,0.89,CA,1621919111
Hambantota,6.1241,81.1185,26.19,79,90,11.07,LK,1621919112
Tiksi,71.6872,128.8694,4.4,86,11,2.07,RU,1621919112
Berbera,10.4396,45.0143,32.23,49,4,1.77,SO,1621919113
Tupanciretã,-29.0806,-53.8358,6.47,89,0,2.23,BR,1621919113
Dingle,10.9995,122.6711,32.32,58,77,4.06,PH,1621919114
Shihezi,44.3,86.0333,29.94,16,6,3.83,CN,1621919114
Balaipungut,1.05,101.2833,31.23,66,81,1.57,ID,1621919115
Inhambane,-23.865,35.3833,20.08,64,78,2.73,MZ,1621919115
Acapulco de Juárez,16.8634,-99.8901,27.56,68,28,2.55,MX,1621918967
Kentau,43.5206,68.5094,29.96,27,62,4.08,KZ,1621919116
Hamilton,39.1834,-84.5333,20.94,79,1,1.93,US,1621918949
Puerto Escondido,15.85,-97.0667,28.09,77,84,2.21,MX,1621919117
Solnechnyy,50.7214,136.6319,3.62,97,100,2.75,RU,1621919117
Château-Gontier,47.8333,-0.7,6.42,98,2,3.26,FR,1621919118
Yangi Marg`ilon,40.4272,71.7189,27.39,32,99,2.06,UZ,1621919118
Dunedin,-45.8742,170.5036,8.78,65,0,3.13,NZ,1621919118
Tūkrah,32.5341,20.5791,24.67,34,51,1.16,LY,1621919119
Meiktila,20.8667,95.8667,32.65,48,38,9.61,MM,1621919119
Ouadda,8.0777,22.4007,21.47,86,74,1.67,CF,1621919096
Flinders,-34.5833,150.8552,21.66,61,99,1.34,AU,1621919120
Walvis Bay,-22.9575,14.5053,17.83,52,23,2.81,NA,1621919121
Kaitangata,-46.2817,169.8464,6.07,75,0,1.46,NZ,1621919121
Saint Paul Harbor,57.79,-152.4072,12.73,54,1,2.06,US,1621919122
Mount Hagen,-5.8581,144.2274,19.9,92,81,1.16,PG,1621919122
Copala,16.65,-98.9833,27.39,70,37,2.7,MX,1621919123
Coquimbo,-29.9533,-71.3436,9.85,68,0,1.42,CL,1621919123
Kununurra,-15.7667,128.7333,33.99,31,31,5.66,AU,1621919124
Burnie,-41.0667,145.9167,16.08,84,87,5.77,AU,1621919124
Narsaq,60.9167,-46.05,5.12,99,100,2.44,GL,1621919125
Ngunguru,-35.6167,174.5,13.98,71,100,12.34,NZ,1621919102
Moose Factory,51.2585,-80.6094,14.99,77,90,1.54,CA,1621919125
Agadez,19.75,10.25,29.16,10,0,5.14,NE,1621919126
Contamana,-7.3333,-75.0167,21.99,99,98,1.05,PE,1621919126
Broome,42.2506,-75.833,14.31,94,90,0.89,US,1621919127
Bhānpurī,21.1,80.9167,38.23,10,88,8.66,IN,1621919127
Kirovskiy,45.0917,133.5136,17.67,35,8,4.07,RU,1621919128
Vardø,70.3705,31.1107,3.11,64,18,1.74,NO,1621918988
Otradnoye,59.7775,30.8181,9.96,75,96,1.74,RU,1621919128
Urubichá,-15.3833,-62.95,16.86,55,98,0.64,BO,1621919129
Hukuntsi,-24.0,21.75,11.7,50,95,4.57,BW,1621919129
Sturgeon Bay,44.8342,-87.377,20.1,77,1,4.63,US,1621919026
Isangel,-19.55,169.2667,25.06,60,75,5.46,VU,1621919130
Port Elizabeth,-33.918,25.5701,13.94,78,100,2.04,ZA,1621919130
Natal,-5.795,-35.2094,22.36,78,20,3.6,BR,1621919030
Inta,66.0317,60.1659,5.66,78,100,5.38,RU,1621919131
Erzin,36.9559,36.2,22.78,52,3,1.44,TR,1621918908
Mogadishu,2.0371,45.3438,26.9,77,9,8.68,SO,1621919027
Bethel,41.3712,-73.414,12.14,66,90,1.54,US,1621919132
Laguna,38.421,-121.4238,19.81,56,1,2.68,US,1621919133
Vonitsa,38.9164,20.8864,18.98,58,0,0.81,GR,1621919133
Yagoua,10.3411,15.2329,28.25,26,87,1.11,CM,1621919134
Saldanha,-33.0117,17.9442,15.86,94,95,1.95,ZA,1621919134
Uyuni,-20.4597,-66.825,3.47,14,80,3.51,BO,1621919134
Esim,4.8699,-2.2405,26.32,87,78,2.97,GH,1621919135
Umluj,25.0213,37.2685,28.96,41,0,5.04,SA,1621918854
São Félix do Xingu,-6.6447,-51.995,21.29,89,5,0.7,BR,1621919136
Cap-aux-Meules,47.3821,-61.8597,6.32,77,0,10.78,CA,1621919136
Menongue,-14.6585,17.691,8.56,76,1,1.86,AO,1621919137
Leningradskiy,69.3833,178.4167,1.74,94,99,3.84,RU,1621919138
Bari,41.1177,16.8512,20.19,55,0,0.45,IT,1621918921
Cuauhtémoc,28.4167,-106.8667,19.29,23,30,7.54,MX,1621919138
Barinas,8.6226,-70.2075,23.94,91,98,1.85,VE,1621919139
San Borja,-14.8167,-66.85,16.29,71,96,0.89,BO,1621919139
Mossamedes,-15.1961,12.1522,22.42,62,0,1.23,AO,1621919140
Hasaki,35.7333,140.8333,26.66,60,48,3.3,JP,1621919140
Barhi,23.9,80.8,35.79,14,91,7.58,IN,1621919141
Tommot,58.9564,126.2925,10.84,66,100,2.11,RU,1621919141
Berlevåg,70.8578,29.0864,2.97,65,75,2.06,NO,1621919142
Mackay,-21.15,149.2,23.71,76,39,5.51,AU,1621919033
Faya,18.3851,42.4509,23.29,28,5,3.21,SA,1621919142
Colón,9.3592,-79.9014,26.06,92,99,1.34,PA,1621919143
Kāman,27.65,77.2667,38.34,14,20,6.54,IN,1621919143
Toamasina,-18.1667,49.3833,21.82,78,9,3.44,MG,1621919144
Zabaykal'sk,49.6333,117.3167,12.87,24,66,8.23,RU,1621919144
Prince Rupert,54.3161,-130.3201,8.26,86,74,1.5,CA,1621919145
Kismayo,-0.3582,42.5454,27.19,70,72,8.42,SO,1621919145
Naze,28.3667,129.4833,21.34,72,100,2.12,JP,1621919146
Cayenne,4.9333,-52.3333,24.49,91,90,3.74,GF,1621919146
Gualaquiza,-3.4,-78.55,17.92,99,78,0.48,EC,1621919146
Akdepe,42.0551,59.3788,30.0,17,0,3.03,TM,1621919147
Genhe,50.7833,121.5167,10.02,47,100,1.37,CN,1621919147
Plettenberg Bay,-34.0527,23.3716,15.73,69,100,1.3,ZA,1621919148
Nadym,65.5333,72.5167,5.63,40,89,2.36,RU,1621919148
Aguçadoura,41.4318,-8.7804,9.77,85,3,4.04,PT,1621919149
Chui,-33.6971,-53.4616,10.52,78,0,5.49,UY,1621919149
Umeå,63.8284,20.2597,6.96,87,90,2.57,SE,1621919150
Nipawin,53.3668,-104.0009,9.84,89,100,1.18,CA,1621919150
Ginda,30.6945,78.4932,25.97,21,0,2.79,IN,1621919151
Tubinskiy,52.8892,58.2225,28.08,36,0,3.92,RU,1621919151
Sibolga,1.7427,98.7792,31.06,64,56,2.5,ID,1621919152
Praia da Vitória,38.7333,-27.0667,18.2,82,100,8.8,PT,1621919152
Yambio,4.5721,28.3955,21.14,94,96,1.74,SS,1621919152
Zhaotong,27.3167,103.7167,13.26,85,100,0.23,CN,1621919153
Vila do Maio,15.1333,-23.2167,21.78,84,48,8.85,CV,1621919154
Pampierstad,-27.7832,24.6877,10.12,56,98,3.82,ZA,1621919154
Belmonte,-15.8631,-38.8828,23.28,82,98,3.92,BR,1621919154
Vila Franca do Campo,37.7167,-25.4333,17.23,68,100,4.26,PT,1621919155
Shellbrook,53.2168,-106.4011,8.9,96,100,4.37,CA,1621919155
Half Moon Bay,37.4636,-122.4286,13.24,92,1,5.44,US,1621919106
Chumikan,54.7183,135.315,0.4,99,100,9.45,RU,1621919156
Nuuk,64.1835,-51.7216,-2.66,100,90,4.12,GL,1621919157
Forsytheganj,52.6333,29.7333,13.41,76,63,3.08,BY,1621919158
Padang,-0.9492,100.3543,31.03,68,63,2.35,ID,1621919153
Korla,41.7597,86.1469,28.84,13,100,4.88,CN,1621919158
Mount Isa,-20.7333,139.5,28.87,30,16,3.09,AU,1621919159
Tual,-5.6667,132.75,28.08,80,41,9.07,ID,1621919159
Presidente Prudente,-22.1256,-51.3889,12.15,55,100,1.9,BR,1621919160
Garoowe,8.4054,48.4845,26.05,61,4,9.77,SO,1621919160
Ranfurly,-45.1333,170.1,-1.63,67,0,0.59,NZ,1621919161
Comodoro Rivadavia,-45.8667,-67.5,5.33,66,58,3.79,AR,1621919161
Vila Velha,-20.3297,-40.2925,23.62,78,90,3.13,BR,1621919071
Littlehampton,50.8069,-0.5378,7.43,90,80,6.88,GB,1621919162
Ponta do Sol,32.6667,-17.1,17.79,81,41,2.85,PT,1621919162
Ordzhonīkīdze,52.4411,61.7408,31.8,21,15,3.73,KZ,1621919163
Middelburg,-25.7751,29.4648,7.47,61,0,1.09,ZA,1621918917
Jega,12.2175,4.3792,30.41,43,75,4.12,NG,1621919164
Gondanglegi,-7.7479,112.0132,29.6,70,63,1.7,ID,1621919164
Mpongwe,-13.5091,28.155,9.97,87,0,2.69,ZM,1621919165
Miasskoye,55.2784,61.8905,27.49,29,0,3.26,RU,1621919165
Hūn,29.1268,15.9477,28.95,10,34,2.95,LY,1621919166
Varva,50.495,32.7197,13.35,81,27,2.03,UA,1621919166
Kutum,14.2,24.6667,24.01,13,99,2.53,SD,1621919166
Ilo,-17.6394,-71.3375,17.29,84,98,2.22,PE,1621919167
Vrangel',42.7297,133.0839,12.82,67,51,4.46,RU,1621919167
Ağdam,39.991,46.9274,23.36,43,55,1.58,AZ,1621919168
Lumphat,13.4878,106.9816,26.83,85,100,2.09,KH,1621919168
Proseč,49.8059,16.1162,9.91,95,100,5.29,CZ,1621919169
Galveston,29.3669,-94.9669,24.25,89,90,0.45,US,1621919070
Altay,47.8667,88.1167,24.85,21,47,2.27,CN,1621919169
Honningsvåg,70.9821,25.9704,2.3,60,16,2.51,NO,1621918988
Shenjiamen,29.9576,122.298,21.88,71,98,2.82,CN,1621919170
El Carrizo,24.0261,-106.8814,22.26,85,1,1.7,MX,1621919171
Tabou,4.423,-7.3528,26.33,87,78,3.41,CI,1621919171
Christchurch,-43.5333,172.6333,9.0,81,23,0.89,NZ,1621918927
Saint-Pierre,-21.3393,55.4781,23.67,69,0,5.14,RE,1621919172
Juba,4.8517,31.5825,22.39,90,96,1.54,SS,1621919172
Marsabit,2.3284,37.9899,16.86,75,26,6.07,KE,1621918888
Shubarshi,48.5872,57.1869,30.21,22,3,2.89,KZ,1621919173
Newport,51.5877,-2.9984,8.38,86,86,5.62,GB,1621918923
Aurillac,44.9167,2.45,4.27,100,75,1.54,FR,1621919174
Tigil',57.8,158.6667,8.79,60,21,7.43,RU,1621919174
Emerald,-23.5333,148.1667,25.75,50,41,4.99,AU,1621919175
Sarata,46.0197,29.6657,15.31,68,35,3.09,UA,1621919175
Abbeville,50.1,1.8333,8.97,91,88,5.92,FR,1621919175
Kholodnyy,62.7167,147.95,12.56,34,95,3.05,RU,1621919176
Biak,-0.9131,122.8766,28.79,66,76,2.1,ID,1621919176
Chimbote,-9.0853,-78.5783,18.09,90,36,2.32,PE,1621918943
Mapastepec,15.4333,-92.9,25.52,92,100,2.26,MX,1621919177
Qasigiannguit,68.8193,-51.1922,7.14,39,100,13.43,GL,1621919178
Progreso,21.2833,-89.6667,27.06,79,20,5.9,MX,1621919073
Matam,15.6175,-13.3303,28.75,30,85,5.21,SN,1621919178
College,64.8569,-147.8028,18.61,23,20,0.0,US,1621919179
Tura,25.5198,90.2201,32.46,54,83,1.62,IN,1621919179
Metro,-5.1131,105.3067,31.58,58,65,2.73,ID,1621919180
Molepolole,-24.4066,25.4951,9.14,65,39,1.62,BW,1621919180
Olafsvik,64.8945,-23.7142,6.45,81,100,5.73,IS,1621919043
Salalah,17.0151,54.0924,31.05,58,75,5.66,OM,1621919181
San Jerónimo,-11.9472,-75.2829,9.35,81,92,0.69,PE,1621919181
Whitefish,48.4111,-114.3376,9.06,97,90,0.25,US,1621919182
Banda Aceh,5.5577,95.3222,29.79,67,99,2.27,ID,1621919182
Esperance,-33.8667,121.9,13.91,64,100,5.2,AU,1621919183
Escárcega,18.6089,-90.7454,24.4,75,94,2.04,MX,1621919183
Bobenheim-Roxheim,49.5875,8.3578,9.64,70,75,4.47,DE,1621919184
Hornepayne,49.2138,-84.7705,11.65,96,67,4.03,CA,1621919184
Kirensk,57.7853,108.1119,15.63,19,100,2.01,RU,1621919185
Olinda,-8.0089,-34.8553,25.85,70,40,3.56,BR,1621919051
Krasnosel'kup,65.7,82.4667,4.29,44,69,7.12,RU,1621919185
Bubaque,11.2833,-15.8333,25.97,71,77,4.45,GW,1621919186
Sitka,57.0531,-135.33,8.94,71,90,3.6,US,1621919186
Bafra,41.5678,35.9069,19.34,63,16,1.55,TR,1621919187
Santa Cruz,30.4202,-9.5982,17.25,76,77,2.29,MA,1621919187
Tottori-shi,35.5,134.2333,23.72,52,80,3.39,JP,1621919188
Kruisfontein,-34.0033,24.7314,12.71,74,97,1.76,ZA,1621919188
Lyuban',52.7985,28.0048,12.72,79,99,4.51,BY,1621919188
Ahipara,-35.1667,173.1667,14.82,71,96,5.97,NZ,1621919189
Hvide Sande,56.0045,8.1294,10.47,92,100,0.87,DK,1621919189
Novoagansk,61.9449,76.6625,9.81,46,100,4.16,RU,1621919190
Palmerston,-12.486,130.9833,31.72,39,0,2.85,AU,1621919190
Algiers,36.7525,3.042,10.9,69,20,2.65,DZ,1621919191
Atbasar,51.8,68.3333,31.95,21,11,2.5,KZ,1621919192
Morón,-34.6534,-58.6198,11.98,74,0,2.24,AR,1621919192
Alofi,-19.0595,-169.9187,27.35,76,60,4.84,NU,1621919193
Acaraú,-2.8856,-40.12,25.18,88,83,5.91,BR,1621919193
Thinadhoo,0.5333,72.9333,29.37,66,79,8.04,MV,1621919193
Lambaréné,-0.7001,10.2406,23.7,97,90,1.17,GA,1621919194
Khanbari,27.3747,87.2039,30.78,46,77,2.61,NP,1621919194
Gornopravdinsk,60.05,69.9,19.69,63,86,2.85,RU,1621919195
Iskateley,67.6803,53.1512,3.4,52,100,6.04,RU,1621919195
Sittwe,20.15,92.9,28.7,76,96,12.45,MM,1621919196
Corinth,37.9407,22.9573,23.15,60,0,1.4,GR,1621919196
Roseland,38.4221,-122.728,14.93,65,1,1.79,US,1621919197
Acheng,45.5454,126.977,18.24,22,56,4.74,CN,1621919197
São João da Barra,-21.6403,-41.0511,19.77,73,73,4.65,BR,1621919198
Baruun-Urt,46.6806,113.2792,14.39,23,97,6.21,MN,1621918948
Remanso,-9.6179,-42.0831,22.48,50,23,2.91,BR,1621919198
Matara,5.9485,80.5353,27.24,86,100,8.01,LK,1621919199
Fukuechō,32.6881,128.8419,21.2,68,74,9.83,JP,1621919199
Basse,52.5518,9.5069,10.42,82,75,5.36,DE,1621919200
Barra do Garças,-15.89,-52.2567,20.61,70,78,1.43,BR,1621919201
Bogorodskoye,56.55,37.8833,12.31,68,3,3.11,RU,1621919201
Bom Jesus,-9.0744,-44.3586,19.85,49,9,0.27,BR,1621919202
West Wendover,40.7391,-114.0733,13.56,47,1,1.54,US,1621919202
Jalu,29.0331,21.5482,24.62,14,0,3.67,LY,1621919203
Xique-Xique,-10.8218,-42.7263,23.31,48,53,2.67,BR,1621919203
Pokhara,28.2333,83.9833,32.4,28,100,2.95,NP,1621919101
Port Blair,11.6667,92.75,28.49,84,100,10.67,IN,1621919000
Soyo,-6.1349,12.3689,25.36,91,60,3.46,AO,1621919055
Merritt Island,28.5392,-80.672,22.39,69,3,0.89,US,1621919204
Terrace,54.5163,-128.6035,10.79,71,65,0.93,CA,1621919205
Cessnock,-32.8333,151.35,21.21,57,34,2.07,AU,1621919118
Mahibadhoo,3.7833,72.9667,29.08,74,100,9.61,MV,1621919206
Isla Mujeres,21.2311,-86.731,25.09,80,68,6.12,MX,1621919206
Lüderitz,-26.6481,15.1594,17.23,69,100,4.99,NA,1621919206
Meadow Lake,34.8014,-106.5436,18.21,12,0,3.7,US,1621918946
Qaqortoq,60.7167,-46.0333,5.28,99,100,3.16,GL,1621919207
Umm Kaddadah,13.6017,26.6876,27.4,12,26,3.17,SD,1621919208
Kabare,-2.4683,28.8242,15.89,97,94,0.79,CD,1621919208
Barra de Tecoanapa,16.5167,-98.75,29.15,67,63,3.22,MX,1621919208
Chã Grande,-8.2383,-35.4617,23.1,92,85,1.85,BR,1621918950
Chifeng,42.2683,118.9636,17.24,27,100,8.33,CN,1621919209
Murygino,58.7383,49.4582,16.16,51,97,3.85,RU,1621919210
Abhā,18.2164,42.5053,23.14,29,20,3.0,SA,1621919210
Bairiki Village,1.3292,172.9752,26.0,82,90,3.11,KI,1621919210
Loukhi,66.0764,33.0381,3.87,62,100,2.13,RU,1621919211
Bengkulu,-3.8004,102.2655,29.43,70,50,3.01,ID,1621919193
Kodīnar,20.7903,70.7031,31.67,59,48,7.28,IN,1621919169
Tessaoua,13.7574,7.9874,27.06,13,11,3.49,NE,1621919212
Margate,51.3813,1.3862,8.01,73,94,0.45,GB,1621919212
Rantepao,-2.9701,119.8978,27.62,67,35,1.65,ID,1621919215
Washington,47.5001,-120.5015,10.86,85,72,2.61,US,1621919204
Batemans Bay,-35.7167,150.1833,21.45,51,100,3.56,AU,1621919216
Katobu,-4.9408,122.5276,30.32,64,50,1.99,ID,1621919216
Marsaxlokk,35.8419,14.5431,18.34,100,20,3.6,MT,1621919217
Gaza,31.5,34.4667,22.09,61,2,0.67,PS,1621919217
Viedma,-40.8135,-62.9967,11.44,43,27,11.63,AR,1621918690
Coyhaique,-45.5752,-72.0662,4.97,52,0,2.57,CL,1621919218
Sri Aman,1.2376,111.4621,34.23,49,100,0.89,MY,1621919218
Mabaruma,8.2,-59.7833,22.49,94,65,1.14,GY,1621919219
Tiznit Province,29.5833,-9.5,17.59,55,45,0.88,MA,1621919219
Upington,-28.4478,21.2561,14.35,49,99,4.56,ZA,1621919219
Turukhansk,65.8167,87.9833,1.69,58,100,9.89,RU,1621919220
Meridian,43.6121,-116.3915,11.93,83,1,0.45,US,1621919221
Collie,-33.3667,116.15,14.43,51,100,0.87,AU,1621919222
Arrondissement de Millau,44.0833,2.9167,8.07,84,90,3.57,FR,1621919222
Lavrentiya,65.5833,-171.0,2.09,80,26,5.63,RU,1621919222
Fairbanks,64.8378,-147.7164,18.79,30,1,2.06,US,1621919000
Kloulklubed,7.0419,134.2556,26.28,77,100,1.26,PW,1621919223
Djambala,-2.5447,14.7533,20.67,86,47,0.66,CG,1621919224
Puerto Quijarro,-17.7833,-57.7667,17.46,42,86,1.05,BO,1621919224
Trincomalee,8.5711,81.2335,31.64,61,30,11.59,LK,1621919224
Dicabisagan,17.0818,122.4157,32.27,59,9,3.73,PH,1621919225
Buala,-8.145,159.5921,28.2,76,100,2.48,SB,1621919226
Alyangula,-13.8483,136.4192,27.45,65,100,7.01,AU,1621919226
Taman',45.2117,36.7161,16.18,79,40,4.62,RU,1621919227
Tocopilla,-22.092,-70.1979,18.84,62,96,3.48,CL,1621919227
Scarborough,54.2797,-0.4044,8.15,88,79,0.45,GB,1621919175
São Gabriel da Cachoeira,-0.1303,-67.0892,23.84,86,70,0.6,BR,1621919228
Koboko,3.4136,30.9599,18.46,92,19,0.96,UG,1621919228
Merauke,-8.4667,140.3333,27.93,74,78,5.5,ID,1621919229
Nieuw Amsterdam,5.8833,-55.0833,25.01,97,100,2.74,SR,1621919229
Asău,46.4333,26.4,13.7,74,31,1.64,RO,1621919229
Clarence Town,-32.5833,151.7833,21.44,58,15,0.82,AU,1621919230
Laurel,39.0993,-76.8483,13.49,95,90,0.45,US,1621919230
Haradok,55.4624,29.9816,10.86,75,100,1.83,BY,1621919231
Aketi,2.7388,23.7833,21.4,99,85,0.61,CD,1621919231
Biryusinsk,55.9634,97.8235,13.53,69,100,6.62,RU,1621919232
Taicheng,38.731,113.228,23.82,18,1,10.31,CN,1621919232
Gambo,4.6482,22.2633,21.13,97,20,0.88,CF,1621919233
Skjervøy,70.0311,20.9714,5.0,57,6,2.83,NO,1621919233
Jilib,0.4883,42.7854,27.51,63,9,5.61,SO,1621919234
Vestmannaeyjar,63.4427,-20.2734,6.39,74,89,7.6,IS,1621918990
Hyères,43.1167,6.1167,14.08,55,0,7.72,FR,1621919234
Camacha,33.0833,-16.3333,16.67,72,75,6.69,PT,1621919235
Bend,44.0582,-121.3153,7.63,86,1,0.45,US,1621919214
Kourou,5.1552,-52.6478,24.5,97,100,3.0,GF,1621919235
Kahului,20.8947,-156.47,25.85,77,40,2.57,US,1621919236
Fuerte Olimpo,-21.0415,-57.8738,18.3,33,99,0.67,PY,1621919236
Alice Springs,-23.7,133.8833,20.75,59,90,4.08,AU,1621919237
Tuatapere,-46.1333,167.6833,6.22,73,3,0.43,NZ,1621919238
Kota Belud,6.351,116.4305,32.92,60,100,3.08,MY,1621919238
Soubre,5.7856,-6.6083,22.96,100,90,0.3,CI,1621919239
Kovūr,14.4833,79.9833,37.25,33,99,9.29,IN,1621919239
Marsá Maţrūḩ,31.3525,27.2453,21.35,75,0,2.0,EG,1621919240
Porto Tolle,44.9497,12.3245,13.61,92,100,3.51,IT,1621919240
Sulphur,30.2366,-93.3774,22.41,96,1,2.39,US,1621919072
Sungai Penuh,-2.0833,101.3833,24.95,77,52,0.92,ID,1621919241
Wapi Pathum,15.8452,103.3768,31.85,55,95,1.87,TH,1621919241
La Brea,15.8,-85.9667,23.49,94,96,2.0,HN,1621919242
Āzādshahr,34.7909,48.5707,21.01,31,100,6.25,IR,1621919242
Pandan,14.0453,124.1694,30.5,64,35,3.2,PH,1621919243
Port Lincoln,-34.7333,135.8667,14.3,62,62,10.27,AU,1621919243
Santa Barbara,34.7333,-120.0343,12.14,40,1,2.19,US,1621919161
Khovd,48.0056,91.6419,18.48,33,5,3.63,MN,1621919244
Cayon,17.35,-62.7333,25.74,77,59,9.26,KN,1621919245
Vostok,46.4856,135.8833,10.13,68,99,4.07,RU,1621919245
Tairua,-37.0167,175.85,15.05,62,93,10.46,NZ,1621919246
